[
    {
        "name": "Hospital General Tampico Dr. Carlos Canseco",
        "address": "Av. Ej√©rcito Mexicano 1403, Col. Allende, 89130 Tampico, Tamps.",
        "phone": "833 454 2970",
        "lat": 22.253570,
        "lon": -97.858994,
        "tipo": "SSA"
    },
    {
        "name": "Hospital Regional de Alta Especialidad de Ciudad Victoria",
        "address": "Blvd. Praxedis Balboa S/N, 87083 Cd. Victoria, Tamps.",
        "phone": "834 318 9900",
        "lat": 23.7625,
        "lon": -99.1453,
        "tipo": "SSA"
    },
    {
        "name": "Hospital General de Ciudad Victoria",
        "address": "Calle 15 Matamoros, Centro, 87000 Cd. Victoria, Tamps.",
        "phone": "834 312 0096",
        "lat": 23.7364,
        "lon": -99.1458,
        "tipo": "SSA"
    },
    {
        "name": "Hospital General Reynosa",
        "address": "Av. Hidalgo 1705, Centro, 88500 Reynosa, Tamps.",
        "phone": "899 922 0150",
        "lat": 26.0569,
        "lon": -98.2975,
        "tipo": "SSA"
    }
]